[
{
  "model": "mellonsforsale.item",
  "pk": 2,
  "fields": {
    "name": "Grapes of Wrath",
    "description": "new",
    "street": "220 Schenley Rd",
    "city": "Pittsburgh",
    "state": "PA",
    "latitude": 40.439691, 
    "longitude": -79.935801,
    "zip_code": "15217",
    "seller": 1,
    "labels": [3]
  }
},
{
  "model": "mellonsforsale.item",
  "pk": 3,
  "fields": {
    "name": "Of Mice and Men",
    "description": "new",
    "street": "110 Techview Terrace",
    "city": "Pittsburgh",
    "state": "PA",
    "latitude": 40.443330,
    "longitude": -79.937904,
    "zip_code": "15217",
    "seller": 3,
    "labels": [3],
    "interested": [2,3,4]
  }
},
{
  "model": "mellonsforsale.item",
  "pk": 6,
  "fields": {
    "name": "Laptop",
    "description": "old macbook",
    "street": "Newell-Simon Hall",
    "city": "Pittsburgh",
    "state": "PA",
    "latitude": 40.443218,     
    "longitude": -79.945435,
    "zip_code": "15213",
    "seller": 4,
    "labels": [1]
  }
},
{
  "model": "mellonsforsale.item",
  "pk": 11,
  "fields": {
    "name": "Harry Potter and the Chamber of Secrets",
    "description": "okay",
    "street": "5001 Forbes Avenue",
    "city": "Pittsburgh",
    "state": "PA",
    "latitude": 40.444504,
    "longitude": -79.941769,
    "zip_code": "15213",
    "seller": 2,
    "labels": [3],
    "interested": [1,4]
  }
},
{
  "model": "mellonsforsale.item",
  "pk": 12,
  "fields": {
    "name": "Microwave",
    "description": "used",
    "street": "4909 Frew St",
    "city": "Pittsburgh",
    "state": "PA",
    "latitude": 40.440940,  
    "longitude": -79.943697,
    "zip_code": "15213",
    "seller": 3,
    "labels": [1],
    "interested": [1,3]
  }
}
]
